Name,Founded,Comment,Lat,Long,x,y
Durres,1251-1300, ,41.327572554372495,19.45314880591287,2165514.6193999983,5060779.2700999975
Utrecht,pre-1250, ,52.135792000006674,5.191129999625514,577873.9481999986,6824715.728600003
The Hague,1401-1500, ,52.075995999749075,4.280995999927752,476558.2947999984,6813878.187100001
Kilkenny,pre-1250, ,52.65381793580331,-7.247648125684286,-806804.4987999983,6919218.572800003
Zwolle,1401-1500, ,52.51045568019334,6.099179120939927,678957.5139999986,6892953.900600001
Rotterdam,1401-1500, ,51.926001999816776,4.484999000104748,499267.80490000173,6786756.7097999975
Antwerpen,pre-1250, ,51.27947799972634,4.775374999578419,531592.3132999986,6670879.835699998
Leuven,pre-1250, ,50.87799700007728,4.703995999877856,523646.43939999864,6599741.112599999
Brussels,1401-1500, ,50.837002000102814,4.367999000309664,486243.42449999973,6592511.752400003
Groningen,1301-1400, ,53.18959300016874,6.8736979997597665,765176.5612000003,7018144.7836000025
Zutphen,1251-1300, ,52.13899599976049,6.206996000216632,690959.6341000013,6825296.838100001
Nijmegen,1251-1300, ,51.822996999906145,5.858002999771195,652109.9109999985,6768184.099299997
Maastricht,1251-1300, ,50.84946121852207,5.68362958446296,632698.7512000017,6594708.230599999
Liège,pre-1250, ,50.64188417187648,5.572407508151155,620317.566300001,6558189.989299998
Argentan,1251-1300, ,48.748003000027,-0.024001000013218702,-2671.7791000008583,6232210.444200002
Morlaix,pre-1250, ,48.579000999980934,-3.8390020000506757,-427355.7478,6203726.2535
Dinan,pre-1250, ,48.4620009998614,-2.0509990000223244,-228316.16429999843,6184062.406999998
Laval,1401-1500, ,48.07099599981867,-0.7729990003259872,-86049.85509999841,6118674.177199997
Quimperlé,1251-1300, ,47.8690000002332,-3.5479960003901323,-394961.10810000077,6085088.707199998
Angers,pre-1250, ,47.46900400003878,-0.5319969996087878,-59221.63509999961,6018966.300899997
Guérande,1401-1500, ,47.32800099970555,-2.4229959998729904,-269726.68090000004,5995777.489200003
Fontenay-le-Comte,1251-1300, ,46.465000000222375,-0.798999999606307,-88944.27309999987,5855181.512199998
La Rochelle,pre-1250, ,46.164003999896885,-1.161996999610912,-129352.91429999843,5806670.040399998
Saintes,1301-1400, ,45.74300200013442,-0.6170020003734034,-68684.34849999845,5739260.3248
Pons,1251-1300, ,45.579004000015516,-0.5430040001912605,-60446.92880000174,5713139.084899999
Saint-Sever,1251-1300, ,43.75899699998977,-0.5779959999950853,-64342.220400001854,5428221.8473000005
Orthez,1251-1300, ,43.492002999748564,-0.7729990003259872,-86049.85509999841,5387162.095399998
Bergerac,1251-1300, ,44.86000300014173,0.4840039998032031,53879.07880000025,5599508.684100002
Figeac,1251-1300, ,44.61099999994577,2.0279989999167407,225755.81599999964,5560487.884499997
Cahors,pre-1250, ,44.448001000097186,1.4400020001680263,160300.28940000013,5535035.1538999975
Rodez,1251-1300, ,44.35500399977012,2.5699970001774886,286090.7573999986,5520545.239600003
Agen,pre-1250, ,44.19199599980777,0.6320000001675559,70353.91820000112,5495202.239799999
Montauban,1251-1300, ,44.020996000066134,1.3410020000650296,149279.6598000005,5468691.937799998
Condom,1251-1300, ,43.96200100005157,0.37100000014100576,41299.531100001186,5459563.632399999
Lectoure,1251-1300, ,43.93899699982495,0.6230000003215282,69352.0428000018,5456006.676600002
Castres,1251-1300, ,43.603999000049036,2.2320020000937038,248465.32609999925,5404363.237099998
Saint-Gaudens,1251-1300, ,43.10899899993364,0.7229989997839908,80483.88049999997,5328577.349699996
Bagneres,1301-1400, ,43.06499800010077,0.14500100013909997,16141.4375,5321870.4441
Saint-Girons,1301-1400, ,42.9859959999621,1.1479970002496866,127794.44150000066,5309840.538199998
Revel,1301-1400, ,43.459999000148684,2.0060030000918316,223307.2325000018,5382252.556299999
Carcassonne,pre-1250, ,43.2099970001627,2.3419999996600236,260710.2474000007,5343990.3510000035
Pamiers,1251-1300, ,43.11400299998988,1.6159970003282575,179891.96319999918,5329340.3957
Limoux,1301-1400, ,43.052001999810386,2.2120039998860563,246239.15890000015,5319890.434100002
Valence,pre-1250, ,44.95100200009191,4.8269989996439095,537339.070700001,5613811.049400002
Die,1251-1300, ,44.760003999822864,5.366999000287396,597451.5958000012,5583817.8276999965
Aubenas,1251-1300, ,44.62399600009861,4.379996000030783,487578.92440000176,5562520.315800004
Marvejols,1251-1300, ,44.55400299997675,3.287998999921023,366018.374400001,5551579.547799997
Alès,1251-1300, ,44.131002999774104,4.076002999713846,453738.57840000093,5485737.631200001
Millau,1251-1300, ,44.10400300017418,3.0760040003766482,342419.19900000095,5481551.018799998
Orange,1251-1300, ,44.0950029997437,4.879001000001144,543127.9068999998,5480155.906199999
Avingon,pre-1250, ,43.95100299985913,4.792996999877028,533553.9853999987,5457862.912900001
Nîmes,1251-1300, ,43.84599999976519,4.357000999948044,485019.13269999996,5441641.175399996
Arles,pre-1250, ,43.689004000046125,4.6250030002033595,514852.97890000045,5417440.295999996
Aix-en-Provence,1251-1300, ,43.53399700008816,5.441995999829037,605800.2236000001,5393608.088100001
Béziers,pre-1250, ,43.35100000000749,3.2130020003793476,357669.7465999983,5365551.148599997
Perpignan,pre-1250, ,42.70000299997924,2.884997000178567,321156.3969999999,5266420.151500002
Gap,1301-1400, ,44.567998000210466,6.075001999927073,676266.1292000003,5553766.0852999985
Barcelonnette,1301-1400, ,44.39300199990507,6.642002000108641,739384.2804999985,5526462.946699999
Sisteron,pre-1250, ,44.202003999911376,5.932000999953371,660347.3306999989,5496756.1696000025
Nice,pre-1250, ,43.719999999743585,7.261003999749179,808291.2679000013,5422213.290399998
Grasse,1251-1300, ,43.658998000069204,6.916997000371903,769996.5839000009,5412822.098200001
Draguignan,1251-1300, ,43.54199800003254,6.4610030002352365,719235.5639999993,5394836.734099999
Toulon,1251-1300, ,43.133002000076594,5.926997000240198,659790.2879999988,5332238.068499997
Douai,1251-1300, ,50.368003000230686,3.079999999611172,342864.0315999985,6510253.088299997
Valenciennes,pre-1250, ,50.35900300023602,3.5069959996941633,390397.00890000165,6508682.540600002
Arras,pre-1250, ,50.283997000209276,2.7769970002295428,309133.8920000009,6495605.1625000015
Beauvais,1251-1300, ,49.42699900006876,2.0860040002449436,232212.90309999883,6347627.229800001
Compiègne,1251-1300, ,49.40800000013365,2.818999999584622,313809.64449999854,6344376.159000002
Verdun,pre-1250, ,49.16100400001704,5.387995999854509,599788.9710999988,6302224.691299997
Lisieux,pre-1250, ,49.1450020002399,0.2250020002922456,25047.10810000077,6299501.110299997
Evreux,1251-1300, ,49.021998999828966,1.1520019997050632,128240.27600000054,6278594.988700002
Châlons-sur-Marne,pre-1250, ,48.963004000022046,4.364003000176809,485798.5918000005,6268586.2766999975
Chartres,pre-1250, ,48.44400100000867,1.4770009998099658,164418.99920000136,6181041.2255000025
Troyes,pre-1250, ,48.293997999817186,4.070999000000673,453181.5357000008,6155905.741099998
Sens,pre-1250, ,48.19699600010506,3.2840029997881683,365573.5417000018,6139690.747400001
Le Mans,pre-1250, ,47.994999999708384,0.19900100011362887,22152.69000000134,6106023.053300001
Langres,pre-1250, ,47.86099900007939,5.328002000129863,593110.4695999995,6083761.096299998
Blois,1251-1300, ,47.58800199981894,1.3269979996074985,147720.74159999937,6038584.7053999975
Tours,pre-1250, ,47.39399799982203,0.6889970000171429,76698.79520000145,6006623.377499998
Bourges,pre-1250, ,47.080995999925385,2.396998999892315,266832.70809999853,5955304.716600001
Poitiers,pre-1250, ,46.58499699979064,0.3400039995717049,37849.07209999859,5874596.1554000005
Saint-Junien,1251-1300, ,45.8860030000806,0.9000020004228713,100187.76440000162,5762099.9023
Angoulême,1251-1300, ,45.648997000062224,0.16499900034674744,18367.604699999094,5724278.058600001
Périgueux,pre-1250, ,45.1860009997898,0.7159969995552253,79704.42139999941,5650851.221199997
Brive-la-Gaillarde,1251-1300, ,45.15499599999986,1.5190040000633755,169094.75180000067,5645955.528300002
Auxerre,pre-1250, ,47.79899800002367,3.569996000413017,397410.1369000003,6073480.170599997
Beaune,1401-1500, ,47.03000199989237,4.83200300025538,537896.113499999,5946972.538099997
Le Puy,pre-1250, ,45.04900299983026,3.881998999640707,432142.15190000087,5629239.307400003
Saint-Flour,1301-1400, ,45.037996000229924,3.08399599974406,343308.8643000014,5627505.1635000035
Mâcon,1251-1300, ,46.3100020001676,4.822004000151556,536783.0298999995,5830167.192100003
Bourg-en-Bresse,1401-1500, ,46.20799599987872,5.215996999827132,580642.129999999,5813743.605899997
Vienne,1301-1400, ,45.5290000000966,4.8819979998762015,543461.5313999988,5705189.743900001
Poligny,1251-1300, ,46.83799599987185,5.700998000238326,634632.1944000013,5915670.869800001
Annecy,1401-1500, ,45.90700000018628,6.119002999797745,681164.2980999984,5765458.409500003
Chambéry,1401-1500, ,45.571002999808975,5.909995999907609,657897.7452999987,5711866.6576000005
Grenoble,1251-1300, ,45.18624101166747,5.718496231555378,636580.0885999985,5650889.129500002
Metz,pre-1250, ,49.11399699971866,6.176998999905129,687620.3832999989,6294226.4824
Colmar,1251-1300, ,48.08200300014626,7.352003000263944,818421.2303000018,6120508.070900001
Santarém,pre-1250, ,39.35349700006956,-8.514592000426875,-947840.0458000004,4772434.221000001
Elvas,1251-1300, ,38.88300399979143,-7.152999999602179,-796268.3176000006,4704926.7282000035
Cork,pre-1250, ,51.89798024731953,-8.470467425610755,-942928.1206,6781699.953199998
Evora,1251-1300, ,38.65209999965244,-7.929646000081576,-882724.1548999995,4671959.694499999
Guimaräes,1251-1300, ,41.434999000167544,-8.29200399967852,-923061.6629000008,5076717.202799998
Porto,pre-1250, ,41.26435899969735,-8.312488000132987,-925341.931400001,5051413.1017
Abrantes,1401-1500, ,39.45599800034563,-8.191995999995205,-911928.8233000003,4787201.457500003
Jerez,1251-1300, ,36.69399700004795,-6.132003999799538,-682611.5628000014,4396539.313299999
Santiago De Compostela,pre-1250, ,42.880003000239114,-8.540997999763134,-950779.5482000001,5293724.879100002
Tuy,1301-1400, ,42.046998999955825,-8.641996000381722,-962022.5942000002,5168022.268299997
Vivero,1301-1400, ,43.66600000000466,-7.584001000038844,-844247.1295000017,5413899.563500002
La Coruña,1251-1300, ,43.363996000183825,-8.39599900017217,-934638.3333999999,5367540.8882
Lugo,1301-1400, ,43.01700099990458,-7.558999000117989,-841463.9195999987,5314559.930600002
Astorga,1401-1500, ,42.461998000242716,-6.047998000191016,-673260.0577000007,5230437.708300002
Ribadavia,1251-1300, ,42.29400399978701,-8.137996000020678,-905917.5707999989,5205122.0656
Benavente,1251-1300, ,42.00800199987278,-5.671995999986676,-631403.7065000013,5162178.180200003
Zamora,pre-1250, ,41.511003999727926,-5.74399599965326,-639418.7098000012,5088009.3451000005
Salamanca,pre-1250, ,40.96699900006093,-5.657002000390498,-629734.5821000002,5007475.241800003
Ciudad Rodrigo,1251-1300, ,40.60500100016962,-6.53200000034438,-727138.9138999991,4954252.8288
Plascencia,1401-1500, ,40.03199799976874,-6.084996999832922,-677378.7674999982,4870593.231700003
Trujillo,1401-1500, ,39.45399999984703,-5.8859980002674614,-655226.3002000004,4786913.399599999
León,1251-1300, ,42.601002999698984,-5.572995999883679,-620383.0769000016,5251436.2892
Burgos,pre-1250, ,42.341002000180715,-3.696001000076974,-411436.9492999986,5212197.550700001
Villada,1401-1500, ,42.2569959999015,-4.957000000339051,-551810.7159000002,5199554.276500002
Mayorga,1401-1500, ,42.16200100030622,-5.264998000111365,-586096.8964000009,5185277.383199997
Villalon De Campos,1401-1500, ,42.11600199984221,-4.64000199982238,-516522.65989999846,5178371.850699998
Palencia,pre-1250, ,42.0199990001417,-4.53100299961556,-504388.9466999993,5163975.668200001
Valladolid,1251-1300, ,41.706997000165856,-4.85099800000729,-540010.6272,5117189.564099997
Penafiel,1301-1400, ,41.6040009998652,-4.11800199976928,-458413.8856999986,5101844.057599999
Medina Del Campo,1301-1400, ,41.349003999879656,-4.581997000392509,-510065.57290000096,5063956.767200001
Segovia,pre-1250, ,40.93399599966167,-4.107004000305991,-457189.5940000005,5002610.9580999985
Piedrahita,1301-1400, ,40.46800300011853,-5.33599900041845,-594000.6915999986,4934186.097400002
Vitoria,1251-1300, ,42.85015900015275,-2.67478000014343,-297755.14759999886,5289192.258299999
Pamplona,pre-1250, ,42.769995999878276,-1.6459989997643096,-183231.77050000057,5277028.162799999
Estella,1251-1300, ,42.6830019998371,-2.032000000072473,-226201.20529999956,5263845.316600002
Huesca,1251-1300, ,42.13699899995774,-0.41100099968084797,-45752.42199999839,5181523.372299999
Calatayud,1251-1300, ,41.35399899969304,-1.6340020000431903,-181896.27059999853,5064697.492700003
Alcañiz,1301-1400, ,41.0489979999979,-0.12900400008718477,-14360.659600000829,5019571.5462
Huete,1401-1500, ,40.14600100013936,-2.6880010002532475,-299226.90260000154,4887181.4848000035
Ciudad Real,1301-1400, ,38.977999000013426,-3.9270039997920523,-437152.0855999999,4718520.607900001
Cordoba,pre-1250, ,37.884003999980884,-4.776999999825113,-531773.2074999996,4563052.402900003
Palma del Rio,1301-1400, ,37.70099799965492,-5.28900099977439,-588768.8980999999,4537272.5424000025
Ecija,1251-1300, ,37.53999699990332,-5.0810020003628695,-565614.555399999,4514645.0820999965
Malaga,1401-1500, ,36.72400300028089,-4.424001999924332,-492477.64990000054,4400705.870300002
Jaen,1301-1400, ,37.77099999992719,-3.7909959998262965,-422011.74430000037,4547126.111299999
Zafra,1401-1500, ,38.42415154738874,-6.411473070115095,-713721.9173999988,4639518.6994
Granada,1401-1500, ,37.17400299989433,-3.598000000231773,-400527.5278999992,4463388.3935
Jativa,1251-1300, ,38.99300200006099,-0.5229969997627602,-58219.759700000286,4720669.218699999
Onteniente,1401-1500, ,38.82000400022899,-0.6129970000197296,-68238.5139000006,4695921.387500003
Alcaraz,1301-1400, ,38.662998999920084,-2.494996000437905,-277741.6843000017,4673513.390699998
Orihuela,1401-1500, ,38.08600000001201,-0.9519999996838326,-105976.15520000085,4591581.862199999
Murcia,1251-1300, ,37.98829599988996,-1.4847820001884702,-165285.1761999987,4577772.562100001
Almeria,1401-1500, ,36.843001000121205,-2.4649990001264,-274402.43349999934,4417245.6862
Tremp,1401-1500, ,42.16499799985596,0.8949979998113677,99630.72159999982,5185727.477499999
Gerona,1251-1300, ,41.976997000199795,2.8139959998714494,313252.60179999843,5157534.3288
Balaguer,1301-1400, ,41.79799600027558,0.7949990003489052,88498.88390000165,5130768.089599997
Manresa,1301-1400, ,41.7339970000621,1.8149959998937504,202044.43050000072,5121216.393799998
Cervera,1301-1400, ,41.67300399994421,1.272997999633003,141709.48910000175,5112122.189499997
Lérida,pre-1250, ,41.622000999896294,0.623998999680994,69463.25090000033,5104524.132200003
Tarragona,pre-1250, ,41.11199800025731,1.2310039996004127,137034.73840000108,5028875.405100003
Tortosa,1301-1400, ,40.82399799981081,0.49699999978208503,55325.786899998784,4986415.9673999995
Palma de Mallorca,pre-1250, ,39.571000000245505,2.647000999557245,294662.8033999987,4803795.610399999
Puigcerda,1251-1300, ,42.43599700012942,1.9299980000715402,214846.39460000023,5226515.086300001
Seo de Urgel,1251-1300, ,42.360999999879034,1.4590010001178775,162415.248399999,5215209.826200001
Vejle,1301-1400, ,55.74948099974726,9.552223999790794,1063348.7115999982,7508705.196800001
Ribe,pre-1250, ,55.327997362765046,8.761647771199968,975342.1684000008,7425785.711800002
Haderslev,pre-1250, ,55.2529959999633,9.490997000354962,1056532.9532000013,7411123.112999998
Helsingor,1401-1500, ,56.03399799997685,12.611000000054146,1403850.0984000005,7565186.675399996
Holbaek,1251-1300, ,55.72099600003361,11.720999000283234,1304775.6402999982,7503073.162699997
Naestved,1251-1300, ,55.22965381082616,11.76082089911167,1309208.5938000008,7406565.413900003
Schleswig,pre-1250, ,54.52600300005563,9.554996000433281,1063657.2892999984,7270411.123599999
Lübeck,pre-1250, ,53.86900299993824,10.647001999865562,1185218.8410999998,7145385.962700002
Hamburg,pre-1250, ,53.50082200016313,10.007201000126322,1113996.5196000002,7076179.112800002
Osnabrück,1251-1300, ,52.27999900018953,8.047000999703886,895788.0537,6850912.067199998
Cologne,pre-1250, ,50.941995999963375,6.934997000063957,772000.3346999995,6611039.893100001
Aachen,1251-1300, ,50.766000999772245,6.092003000259662,678158.6719000004,6580005.9221
Münster (Westfalen),1301-1400, ,51.9559990001938,7.6320020002403455,849590.5764000006,6792173.416100003
Soest,pre-1250, ,51.5640040001262,8.110001000422741,902801.1816999987,6721672.471500002
Dortmund,1301-1400, ,51.514000000233146,7.465996999963084,831110.9842999987,6712722.9799000025
Treysa,1251-1300, ,50.91014331043876,9.198568929870406,1023980.009300001,6605414.479800001
Bremen,pre-1250, ,53.07022357161078,8.810947230449116,980830.1590999998,6995997.958700001
Minden,pre-1250, ,52.290996999754086,8.90200100034845,990966.2184000015,6852913.435699999
Braunschweig,1301-1400, ,52.27099899993689,10.513999999995718,1170413.1262000017,6849274.655500002
Hildesheim,pre-1250, ,52.155996999760085,9.954002000042882,1108074.4340000004,6828381.009400003
Halberstadt,pre-1250, ,51.89199999997844,11.055998000256466,1230748.0676000006,6780621.176600002
Göttingen,1251-1300, ,51.53599600002824,9.929000000122063,1105291.2241000012,6716658.513999999
Nordhausen,1251-1300, ,51.49799800019214,10.79399899997212,1201582.4723000005,6709861.0889
Mühlhausen,1251-1300, ,51.21300400000912,10.450000999917366,1163288.7901000008,6659058.504500002
Eisenach,pre-1250, ,50.98000299974254,10.318996999664783,1148705.4915000014,6617757.2469
Erfurt Bindersleben,pre-1250, ,50.97259811485714,11.03007052179396,1227861.833900001,6616448.077100001
Marburg An Der Lahn,1251-1300, ,50.800003000054254,8.768000000220777,976049.2952999994,6585992.526500002
Koblenz,pre-1250, ,50.37299800016331,7.585003999596284,844358.7829000019,6511124.870800003
Trier,pre-1250, ,49.75099899978459,6.640003999593081,739161.8641000018,6403264.406000003
Speyer,1251-1300, ,49.312996000083515,8.435998999887143,939091.1130000018,6328138.1098000035
Freiburg,pre-1250, ,47.991004000048065,7.844996000042516,873300.9600000009,6105358.351499997
Frankfurt,pre-1250, ,50.12999800001853,8.668163000241712,964935.4913000017,6468819.716600001
Würzburg,pre-1250, ,49.793002000166666,9.94600099955632,1107183.7666999996,6410504.309299998
Nuremberg,1251-1300, ,49.44599799992266,11.063998999844697,1231638.7347999997,6350879.559799999
Heidelberg,1401-1500, ,49.41099699990819,8.688998000325428,967254.8328999989,6344888.916000001
Pforzheim,1251-1300, ,48.892003000269725,8.701004000267366,968591.3346999995,6256556.3904
Schwabisch Gmund,1251-1300, ,48.79899700015664,9.795998000252183,1090485.5091999993,6240823.956699997
Esslingen am Neckar,pre-1250, ,48.73800399981866,9.329995999790874,1038610.4037999995,6230522.515600003
Stuttgart,1401-1500, ,48.68899900025251,9.210998000378527,1025363.6070999987,6222254.8456000015
Ulm,1251-1300, ,48.40000000022108,9.965998999763968,1109409.9338999987,6173660.452
Augsburg,pre-1250, ,48.367995999813274,10.889002999942262,1212158.269200001,6168296.077299997
Plauen,1251-1300, ,50.49899800024082,12.13599799974681,1350973.1176000014,6533146.210600004
Regensberg,pre-1250, ,49.020000999953126,12.097000999589277,1346631.9913999997,6278255.826899998
Landshut,1251-1300, ,48.54300100004479,12.150002000204307,1352532.0357999988,6197670.999700002
Steyr,1401-1500, ,48.03800200022068,14.41399699967864,1604558.8062999994,6113179.343800001
Vienna,pre-1250, ,48.207526142615066,16.37707261063179,1823087.3836999983,6141449.494199999
Wiener Neustadt,1251-1300, ,47.816997999715795,16.237999999989434,1807605.8915,6076463.642300002
Leoben,1251-1300, ,47.375997999992045,15.09100399964738,1679922.8808000013,6003663.927599996
Graz,1401-1500, ,46.993002999908114,15.439997000092786,1718772.6039000005,5940932.058700003
Stralsund,1251-1300, ,54.311001999786995,13.075003999999863,1455502.7873999998,7229277.765500002
Rostock,1251-1300, ,54.09500200010751,12.087002000383784,1345518.9079000019,7188169.105899997
Greifswald,1251-1300, ,54.089998000020366,13.391003000258738,1490679.6352000013,7187219.296400003
Wismar,1251-1300, ,53.89399599999409,11.460997999616183,1275832.4613000005,7150105.911899999
Prenzlau,1251-1300, ,53.325996999740376,13.86499700008746,1543444.4059000015,7043527.673299998
Neuruppin,pre-1250, ,52.92400299991227,12.799001000156315,1424778.2740000002,6968952.885499999
Strausberg,1251-1300, ,52.5789969997714,13.899998000112102,1547340.6994000003,6905500.292099997
Berlin,1251-1300, ,52.524799000161096,13.392820999950931,1490882.0139999986,6895577.804700002
Kammin,pre-1250, ,54.58378199962422,13.329663997974931,1483851.4087000005,7281502.136100002
Brandenburg,1251-1300, ,52.41499899977769,12.536002999614174,1395501.4704999998,6875513.249700002
Halle Saale,1251-1300, ,51.479997999807175,11.969003000330902,1332383.3192999996,6706643.064400002
Leipzig,pre-1250, ,51.34900300008734,12.397997000031156,1380138.7129000016,6683262.054899998
Jena,1251-1300, ,50.916004000062,11.58300200002274,1289413.8845000006,6606449.230499998
Luckau,1251-1300, ,51.86200300018241,13.754000000263343,1531088.2763999999,6775212.183799997
Lübben,1251-1300, ,51.941401098753296,13.897820013146198,1547098.2470000014,6789536.948600002
Pirna,1251-1300, ,50.95999600010813,13.933999999878951,1551125.7846999988,6614220.526600003
Freiberg,pre-1250, ,50.916004000062,13.343996000292123,1485446.8398999982,6606449.230499998
Rottweil,1251-1300, ,48.1653999997124,8.627800000303596,960442.3027000017,6134415.7447
Bamberg,1301-1400, ,49.89259999974128,10.887099999861213,1211946.428199999,6427696.786399998
Bayonne,pre-1250, ,43.49149999969042,-1.464100000265628,-162982.8665000014,5387084.913099997
Toledo,pre-1250, ,39.86280000025008,-4.024799999597862,-448038.6865000017,4846024.733900003
Narbonne,pre-1250, ,43.18439999986122,3.0006999997900237,334036.3960000016,5340081.658399999
Nevers,1301-1400, ,46.990500000201884,3.1660000004356426,352437.5078999996,5940523.568499997
Rennes,1301-1400, ,48.11900399970857,-1.676996999983416,-186682.45210000128,6126675.744199999
Seville,1401-1500, ,37.373004000030114,-5.970995999562767,-664688.2342000008,4491227.0524
Bordeaux,pre-1250, ,44.840997000225556,-0.5990040003311874,-66680.82030000165,5596524.355099998
Montpellier,pre-1250, ,43.614000000299185,3.8670030003947233,430472.80490000173,5405900.818000004
Toulouse,pre-1250, ,43.599996000322584,1.4380020000026281,160077.65040000156,5403747.876699999
Barcelona,pre-1250, ,41.357996999938216,2.159000999621188,240338.89189999923,5065290.410700001
Cágliari,1251-1300, ,39.224996999862704,9.108998999852336,1014009.1303000003,4753951.8977999985
Amiens,pre-1250, ,49.88799899974263,2.3020019995948897,256257.69040000066,6426901.786799997
Rouen,pre-1250, ,49.43199599993919,1.0770029996152852,119891.42550000176,6348482.515500002
Paris,pre-1250, ,48.8819969997246,2.432996999626653,270839.9871000014,6254862.421400003
Orléans,pre-1250, ,47.9140019999416,1.9060020000811992,212175.17210000008,6092559.737999998
Limoges,pre-1250, ,45.83099699974298,1.2519990004160173,139371.89119999856,5753307.6096
Dijon,pre-1250, ,47.31800400013601,5.0360039998842066,560605.4008999988,5994135.773500003
Clermont-Ferrand,pre-1250, ,45.78399900028791,3.0909960003229866,344088.10080000013,5745802.216700003
Lyon,pre-1250, ,45.746999999937806,4.854995999789983,540455.682500001,5739898.074199997
Bruges,pre-1250, ,51.21000000015961,3.220002000059977,358448.9829999991,6658524.694700003
Besançon,pre-1250, ,47.248001999942176,6.018003000427647,669921.0295999981,5982648.678400002
Toul,pre-1250, ,48.67920000011816,5.895700000270357,656306.3218999989,6220602.614500001
Geneva,1251-1300, ,46.20200399979972,6.134003999964936,682834.2017999999,5812779.806599997
Basel,pre-1250, ,47.54700000001699,7.576002000100418,843356.6849000007,6031819.952100001
Strasbourg,pre-1250, ,48.58299900021437,7.767999000335443,864729.6931999996,6204398.989100002
Zurich,1251-1300, ,47.401002000189976,8.533998000082503,950000.3117999993,6007775.205600001
Wissembourg,1251-1300, ,49.033699999787096,7.946700000117617,884622.5975000001,6280581.514600001
Gent,pre-1250, ,51.04800000005391,3.7359990001421077,415889.5062999986,6629788.762999997
Bern,1251-1300, ,46.8693519998517,7.595237000051831,845497.9153000005,5920775.0053
Konstanz,pre-1250, ,47.652000999728564,9.174998000096085,1021356.1053999998,6049154.240099996
Rieux,1251-1300, ,43.257080000006866,1.199279999833284,133503.23889999837,5351184.2676
Haguenau,1251-1300, ,48.820496000132515,7.791504000056122,867346.2578000017,6244458.025700003
Sélestat,1251-1300, ,48.25970500025818,7.4561159998600575,830011.0364000015,6150169.758900002
's-Hertogenbosch,1251-1300, ,51.68927000017541,5.304320999783793,590474.3126999997,6744135.3138
La Réole,1401-1500, ,44.58367900027393,-0.040282999572171796,-4484.282999999821,5556216.6635000035
Saint-Emilion,1251-1300, ,44.89611799994662,-0.15539600007804166,-17298.6035999991,5605182.190200001
Saint-Jean-d'Angély,1251-1300, ,45.946289000061746,-0.5292969998346589,-58921.07250000164,5771746.1686
Zierikzee,1251-1300, ,51.65289299984277,3.9240720002143052,436825.69689999893,6737605.755000003
Bergues,pre-1250, ,50.96836716736746,2.430498515326907,270561.85709999874,6615700.147200003
Provins,1251-1300, ,48.55932600013707,3.302489999551944,367631.50510000065,6200416.355099998
Magdeburg,pre-1250, ,52.13110400023366,11.636719000140035,1295393.6336000003,6823865.541299999
Saint-Quentin,pre-1250, ,49.84832799979528,3.288330000357127,366055.2212000005,6420050.2381
Saint-Omer,1301-1400, ,50.74987799974275,2.249877999937215,250455.27329999954,6577168.7267
Ypres,1251-1300, ,50.851318000114055,2.8842769995800284,321076.2468999997,6595035.619199999
Lille,pre-1250, ,50.63732899982412,3.0631099996066964,340983.84540000185,6557390.426899999
Morlaas,1251-1300, ,43.34472700017315,-0.2636110001122458,-29345.042300000787,5364590.879699998
Pontevedra,1301-1400, ,42.433715999746326,-8.64801000022335,-962692.069600001,5226171.042499997
Saragossa,pre-1250, ,41.656311000117306,-0.8765870002155615,-97581.2184999995,5109634.725100003
Nantes,pre-1250, ,47.216918999862855,-1.5567020003874403,-173291.2740000002,5977552.928900003
Guingamp,1251-1300, ,48.56030300016006,-3.14440899976834,-350034.00869999826,6200580.684100002
Mainz,1251-1300, ,49.99511700013905,8.267517000316817,920335.7826000005,6445430.234399997
Rheims,pre-1250, ,49.256714000193924,4.033080999568584,448960.52320000157,6318533.179200001
Caen,pre-1250, ,49.18487500012908,-0.36010700025968534,-40086.92790000141,6306289.232199997
Lausanne,pre-1250, ,46.51971399991543,6.632079999997722,738279.7685000002,5864028.521499999
Marseilles,pre-1250, ,43.298278999777644,5.383300999937826,599266.3260999992,5357483.7192
Valencia,pre-1250, ,39.47027600011715,-0.37670900038408434,-41935.05409999937,4789260.201499999
Elgin,pre-1250, ,57.649153604072914,-3.3158677978996303,-369120.7148000002,7893973.987099998
Aberdeen,pre-1250, ,57.14772404045994,-2.095385594542201,-233257.2573999986,7790372.314099997
Montrose,pre-1250, ,56.709829174038276,-2.4668837958482017,-274612.2479999997,7701040.088299997
Inverness,pre-1250, ,57.47661683512973,-4.231272242115422,-471023.07140000165,7858165.461400002
Perth,pre-1250, ,56.39576529958783,-3.4349720536370194,-382379.33989999816,7637608.151799999
Saint Andrews,1251-1300, ,56.33901947618722,-2.7989085233834716,-311573.0716000013,7626203.004199997
Kingshorn,1251-1300, ,56.073408790435614,-3.1720558087689157,-353111.6374000013,7573043.1708
Stirling,pre-1250, ,56.11942399901712,-3.9358819994393413,-438140.37999999896,7582226.4223000035
Glasgow,pre-1250, ,55.865605158761156,-4.2634972754355935,-474610.3456999995,7531707.831900001
Edinburgh,pre-1250, ,55.951020885833124,-3.1887371858284737,-354968.59980000183,7548671.472000003
Berwick,pre-1250, ,55.77050289462171,-2.0052788582598065,-223226.62139999866,7512864.2689
Derry,1251-1300, ,54.997533112976996,-7.320323969261617,-814894.7366999984,7361387.355300002
Bamburgh,1251-1300, ,55.60660431292825,-1.7169182399058365,-191126.4642000012,7480497.001699999
Cavan,1251-1300, ,53.99442004533718,-7.360690624444621,-819388.3321999982,7169099.588200003
Sligo,1251-1300, ,54.27099994861204,-8.471657748159435,-943060.626699999,7221648.423699997
Trim,1251-1300, ,53.554855215693436,-6.7906414376598825,-755930.7470000014,7086297.931500003
Newcastle,pre-1250, ,54.97801269241848,-1.6129442294471013,-179552.1303000003,7357599.993799999
Carlisle,pre-1250, ,54.895122046351375,-2.9335513482220454,-326561.4422999993,7341537.988499999
Ayr,pre-1250, ,55.46336752172209,-4.632132261165165,-515646.6046000011,7452320.669100001
Mullingar,pre-1250, ,53.52477921164163,-7.33835498688215,-816901.9404000007,7080663.995099999
Dublin,pre-1250, ,53.344217402768855,-6.267253412033734,-697667.4585000016,7046924.3763
Roscommon,1251-1300, ,53.62794257442918,-8.188303343865783,-911517.7586999983,7100005.607699998
Athenry,pre-1250, ,53.30076699393994,-8.745488336880062,-973543.3084000014,7038826.612899996
Athy,1251-1300, ,52.99196700046489,-6.986981999804455,-777787.2784000002,6981512.171099998
Limerick,pre-1250, ,52.66385700234032,-8.626773000456701,-960327.9776000008,6921061.002700001
Kilmallock,1251-1300, ,52.39889500024963,-8.57331099970921,-954376.6149000004,6872574.6516999975
Hartlepool,1251-1300, ,54.68249200213269,-1.2166969991941716,-135442.09039999917,7300486.5363000035
Youghal,1251-1300, ,51.95536160039802,-7.851445735797538,-874018.941300001,6792058.280000001
Waterford,pre-1250, ,52.25742070416846,-7.128558136990232,-793547.4618999995,6846804.9223000035
Tralee,pre-1250, ,52.26961306400025,-9.7000944022037,-1079809.5694999993,6849022.5353000015
Lancaster,1251-1300, ,54.05083045028388,-2.8005285379803078,-311753.4107999988,7179788.856299996
Arklow,1251-1300, ,52.79635784731276,-6.157194204857215,-685415.7236000001,6945418.110100001
Lincoln,pre-1250, ,53.234966115034545,-0.538607582308696,-59957.52180000022,7026579.109399997
Yarm,1251-1300, ,54.504174162688095,-1.3541832497234845,-150746.9897999987,7266225.037299998
Wigtown,1251-1300, ,54.867660842795004,-4.443999252733661,-494703.7338999994,7336224.027500004
York,pre-1250, ,53.957709809943225,-1.0824299369440042,-120495.54940000176,7162151.103100002
Scarborough,1251-1300, ,54.284385023729605,-0.3941426769682197,-43875.762099999934,7224200.450800002
Beverley,pre-1250, ,53.845124155191,-0.4361025302402083,-48546.711599998176,7140879.056400001
Pontefract,1251-1300, ,53.69324307945841,-1.3052627133358972,-145301.18059999868,7112272.940499999
Boston,1251-1300, ,52.97752920366312,-0.024225240169376137,-2696.741399999708,6978842.512400001
Derby,pre-1250, ,52.9218991153997,-1.475639075685813,-164267.3905000016,6968564.416699998
Rhuddlan,1251-1300, ,53.29175617742749,-3.4652259361871782,-385747.18670000136,7037148.317199998
Bangor,1251-1300, ,53.22780117577445,-4.1342017603606225,-460217.23479999974,7025246.637800001
Newcastle-under-Lyme,1251-1300, ,53.011200247428526,-2.2296871152683964,-248207.63430000097,6985069.9318
Chester,pre-1250, ,53.191457997469264,-2.8950070001530492,-322270.7050999999,7018491.288599998
Leicester,1251-1300, ,52.63499858966154,-1.1284952132352908,-125623.51249999925,6915765.872699998
Cambridge,pre-1250, ,52.20334910296073,0.12998700404469993,14470.08709999919,6836977.424099997
Haverfordwest,pre-1250, ,51.80166138265296,-4.96494774330566,-552695.4545999989,6764342.431199998
Hereford,pre-1250, ,52.05648702448607,-2.7170348924940844,-302458.9406999983,6810345.484099999
Shrewsbury,pre-1250, ,52.70820914479744,-2.754429996175739,-306621.7446000017,6929205.843800001
Brecon,1251-1300, ,51.947205330082255,-3.3915406799795944,-377544.58150000125,6790585.124399997
Gloucester,pre-1250, ,51.86516531939393,-2.2443530339531366,-249840.23690000176,6775782.236100003
Illchester,1251-1300, ,51.00226184734453,-2.6829670084876818,-298666.52120000124,6621693.827100001
Cardiff,pre-1250, ,51.48020613236678,-3.182574103378913,-354282.52859999985,6706680.266900003
Bristol,pre-1250, ,51.45547380615217,-2.590633530973946,-288388.00549999997,6702260.693599999
Exeter,pre-1250, ,50.72180286541703,-3.533613341175719,-393360.0377999991,6572230.622500002
Truro,1251-1300, ,50.262747900820514,-5.050369256934948,-562204.5340000018,6491904.105899997
Guildford,1251-1300, ,51.23636734257015,-0.5703239059716937,-63488.16679999977,6663211.3521
Oxford,pre-1250, ,51.75463228516769,-1.2621322088233007,-140499.91479999945,6755880.838500001
London,pre-1250, ,51.497754429715656,-0.1308934706417151,-14570.99450000003,6709817.535099998
Canterbury,pre-1250, ,51.276929500701094,1.0811808546942479,120356.50219999999,6670426.310999997
Chichester,1251-1300, ,50.83667403311053,-0.7800731837810881,-86837.34959999844,6592453.9419
Arundel,1251-1300, ,50.855503270311566,-0.5594931449665064,-62282.49199999869,6595773.615800001
Ipswich,1251-1300, ,52.05928896420707,1.1556414504168315,128645.4178000018,6810852.766999997
Dunwich,1251-1300, ,52.27733259719259,1.6317719323503637,181648.02059999853,6850426.921499997
Northampton,pre-1250, ,52.238116614386826,-0.8953890166916196,-99674.24940000102,6843295.035400003
Norwich,pre-1250, ,52.62810100252754,1.2993489996159684,144642.86899999902,6914500.775600001
Great Yarmouth,1251-1300, ,52.60756056120556,1.73302078032554,192918.99080000073,6910734.6022000015
Chelmsford,1251-1300, ,51.73581407695923,0.46970746746497205,52287.5960999988,6752497.487899996
Drogheda,pre-1250, ,53.71673180272255,-6.354122420606152,-707337.6722999997,7116690.1778
Dunstable,1251-1300, ,51.887616759060954,-0.5231345075782586,-58235.06700000167,6779830.575099997
Linlithgow,1251-1300, ,55.97836800008677,-3.5942300000547234,-400107.85339999944,7554110.5414
Salisbury,1251-1300, ,51.067576061836384,-1.7974914237757986,-200095.8299999982,6633255.8618
Stamford,pre-1250, ,52.651324001094686,-0.4800700013912481,-53441.148099999875,6918760.936499998
Wilton,pre-1250, ,51.07980999910872,-1.8637729998719852,-207474.2613000013,6635423.348099999
Sudbury,pre-1250, ,52.04171296576987,0.7283908722739079,81084.10099999979,6807671.210500002
Winchester,pre-1250, ,51.062872308247584,-1.316576663759384,-146560.6438000016,6632422.650399998
Trondheim,pre-1250, ,63.42770697130484,10.390449383639202,1156659.5344999991,9205902.4397
Bergen,pre-1250, ,60.38691109332659,5.3210648609595586,592338.2307999991,8486387.778099999
Oslo,pre-1250, ,59.91382256925889,10.738713126347077,1195428.0769999996,8380576.375600003
Vasteras,pre-1250, ,59.616082943566084,16.552559223630038,1842622.4640999995,8314754.555
Sigtuna,pre-1250, ,59.61733580480354,17.723799238032605,1973004.3060999997,8315030.301899999
Strangnas,1251-1300, ,59.37703896552962,17.032624600494195,1896063.0973999985,8262329.6052
Skänninge,pre-1250, ,58.39893488421843,15.083540983116475,1679092.1015999988,8051592.3816
Skara,pre-1250, ,58.38599249417459,13.438044919537026,1495916.3176999986,8048843.391000003
Lödöse,pre-1250, ,58.0329135538376,12.157919618167886,1353413.421,7974234.825400002
Riga,pre-1250, ,56.946615947484396,24.104002095939638,2683245.2393999994,7749215.254299998
Talinn (Reval),pre-1250, ,59.43886200371366,24.75447200811765,2755655.218800001,8275852.525700003
Tartu (Dorpat),1251-1300, ,58.38209519655532,26.716060157182305,2974018.212699998,8048015.794500001
Turku,pre-1250, ,60.44828428112153,22.231599849804017,2474810.3748000003,8500226.917800002
Halmstad,1251-1300, ,56.675691200218466,12.861380542593265,1431722.3328999989,7694119.626699999
Viborg,pre-1250, ,56.45312868988134,9.403093835956073,1046747.6176999994,7649154.712300003
Arhus,pre-1250, ,56.15796698679523,10.212199325553255,1136816.8288000003,7589926.8999999985
Hälsingborg,1251-1300, ,56.046989920039316,12.695047905172334,1413206.2683999985,7567775.712700002
Lund,pre-1250, ,55.70328332675788,13.192278362350688,1468557.7096999995,7499573.096500002
Ahus,pre-1250, ,55.922822326827344,14.293576098500665,1591153.6129,7543067.080200002
Kalmar,pre-1250, ,56.66212593413816,16.36485408456501,1821727.2236000001,7691371.4125000015
Visby,pre-1250, ,57.640710613863014,18.29606322115038,2036708.441300001,7892217.7619
Roskilde,pre-1250, ,55.641486001369884,12.080417997934791,1344785.9800999984,7487374.206600003
Vordingborg,1251-1300, ,55.00840809100688,11.911817285999703,1326017.434700001,7363498.123099998
Odense,pre-1250, ,55.39678253285851,10.390083642656114,1156618.8203999996,7439257.472499996
Gdansk,pre-1250, ,54.35202880739286,18.64655079454807,2075724.5395000018,7237110.2597
Tczew,1251-1300, ,54.09192700099669,18.777306999919404,2090280.2536999993,7187585.426600002
Elblag,pre-1250, ,54.15605534222603,19.404434646682056,2160091.784000002,7199766.8816
Pasewalk,1251-1300, ,53.505160788445835,13.990191546888603,1557380.9990999997,7076991.162699997
Robel,1251-1300, ,53.37568117249982,12.60433866703225,1403108.5621999986,7052793.3671
Chelmno,pre-1250, ,53.34842000180716,18.424990001157404,2051060.5047999993,7047708.0436
Winsum,1251-1300, ,53.33136621461154,6.517904239675535,725569.7809999995,7044528.4679000005
Leuwarden,pre-1250, ,53.20340684012572,5.791305511783328,644685.1805999987,7020711.667599998
Norden,1251-1300, ,53.594981036737515,7.202458870288386,801774.0538999997,7093820.671800002
Brzesc Kujawski,pre-1250, ,52.56292455113937,18.421840366735793,2050709.8891000003,6902556.494099997
Torun,1251-1300, ,53.015727528966885,18.604329037454953,2071024.4349999987,6985907.617600001
Solec Kujawski,pre-1250, ,53.083252998822154,18.22583199888833,2028890.3374000005,6998412.343500003
Plock,pre-1250, ,52.54634500050717,19.70653599713154,2193721.5524999984,6899520.9463
Sochaczew,1251-1300, ,52.22933700114981,20.238358997561402,2252923.8181000017,6841699.2233000025
Sieradz,pre-1250, ,51.59560100245297,18.73029899922959,2085047.3469999991,6727332.636500001
Leczyca,1251-1300, ,52.05871980591941,19.204180260490144,2137799.5676999986,6810749.719999999
Poznan,pre-1250, ,52.40625125971133,16.925969705512266,1884190.3288000003,6873916.861500002
Lublin,1251-1300, ,51.246454000865846,22.56844599896252,2512307.9166,6665004.913199998
Kiew,pre-1250, ,50.453629148444385,30.50382652671263,3395670.4362000003,6525210.226099998
Košice,pre-1250, ,48.72099601419922,21.25774799845732,2366401.682599999,6227652.173100002
Lvov,1301-1400, ,49.837652533168566,24.034758160802397,2675537.0397999994,6418207.446599998
Krakow Cracow,pre-1250, ,50.06482351797749,19.945488521172436,2220321.6257999986,6457509.710000001
Bistrita Beszterce,1251-1300, ,47.138321626129944,24.49713666463139,2727008.7793999985,5964680.980300002
Sibiu (Hermannstadt),1251-1300,"GHW only: 1250-1303. Curta, 421: pre-1241.",45.79549334870471,24.151399732799103,2688521.520199999,5747637.233400002
Alba-Iulia,1251-1300, ,46.07108082074372,23.57252475824797,2624081.452799998,5791747.297499999
Sarospatak,pre-1250, ,48.31898400154983,21.566374000563293,2400757.772,6160087.424599998
Budapest,1251-1300, ,47.501953126386674,19.042734442943473,2119827.5014999993,6024393.949199997
Esztergom,pre-1250, ,47.7935414030975,18.741700038624913,2086316.504900001,6072575.952399999
Trnava,1301-1400, ,48.37636543954053,17.58829049295567,1957919.5416,6169698.601599999
Györ,1251-1300, ,47.684000906910555,17.635234052100273,1963145.2747000009,6054443.932300001
Tulin an der Donau,1251-1300, ,48.33045213549809,16.061383077293364,1787944.9855999984,6162007.429300003
Vasvár,pre-1250, ,47.05108696425794,16.798507596236643,1870001.3117000014,5950416.755500004
Szekesfehervar,pre-1250, ,47.18871599934047,18.41380900049768,2049815.8414999992,5972931.910899997
Dubica,pre-1250, ,45.186152000171006,16.80712799948462,1870960.9305999987,5650875.070699997
Pécs,pre-1250, ,46.07556969683513,18.230792185070136,2029442.502799999,5792467.598200001
Virovitica,pre-1250, ,45.832787931748975,17.383219169530438,1935091.1063,5753593.739600003
Cazma,pre-1250, ,45.74763419710031,16.612050414730607,1849244.9932000004,5739999.243699998
Pozega,1251-1300, ,45.33107699416699,17.676978004276894,1967792.190200001,5673794.246200003
Bihac,1251-1300, ,44.792859999592466,16.26815499958636,1810962.7307000011,5588970.267099999
Rab,1301-1400, ,44.76359763754777,14.758127351219153,1642867.2217999995,5584381.234999999
Senj,1301-1400, ,44.98921852007397,14.907872236694383,1659536.746199999,5619824.322499998
Krk,1301-1400, ,45.02616000065258,14.5733709994479,1622300.2388000004,5625640.783500001
Zagreb,pre-1250, ,45.814675268701,15.977754261408053,1778635.4684000015,5750700.376500003
Ptuj,pre-1250, ,46.41896204268629,15.871964669521846,1766859.0249000005,5847744.266400002
Friesach,pre-1250, ,46.95457946341406,14.407050801897004,1603785.5590999983,5934663.433499999
Ulcinj,1251-1300, ,41.928758531916266,19.221125739548295,2139685.9298,5150313.784199998
Dubrovnik,pre-1250, ,42.65295422343914,18.081309667845005,2012802.1851000004,5259296.2443
Split,pre-1250, ,43.50689776713669,16.44246574752208,1830366.9144000001,5389447.8983
Zadar,pre-1250, ,44.11487800800467,15.228950999679165,1695279.0705999993,5483237.064400002
Nin,pre-1250, ,44.24283563533903,15.175223272779062,1689298.1273999996,5503098.7842999995
Constantinople,pre-1250, ,41.01702973183197,28.956082210131438,3223376.3269999996,5014853.869999997
Thebes,1251-1300, ,38.321290972642075,23.32216319621249,2596211.3312,4624913.4067
Andravida,1251-1300, ,37.906858730431125,21.270947082369148,2367870.9979000017,4566276.418099999
Chalkis,1251-1300, ,38.46428966819354,23.59956605333969,2627091.675999999,4645223.597900003
Heraklion,1251-1300, ,35.33529856944414,25.131817490033363,2797661.1257000007,4209540.754000001
Antioch,pre-1250, ,36.20368327561552,36.15871422619928,4025169.6554000005,4328684.192000002
Nicosia,pre-1250, ,35.16760400472986,33.373621012147915,3715134.4970000014,4186681.2497999966
Famagusta,1251-1300, ,35.10580298356467,33.950359500102614,3779336.731800001,4178268.658699997
Limassol,1251-1300, ,34.683339566901495,33.051112326165224,3679232.9943000004,4120931.0900000036
Acre,pre-1250, ,32.92963769690434,35.080951515958326,3905193.6592999995,3885968.2643000036
Tripolis,pre-1250, ,34.44567877036833,35.84129994727827,3989835.2595000006,4088803.9461999983
Jerusalem,pre-1250, ,31.775606385616072,35.23137112065357,3921938.2930999994,3733891.386500001
Caffa,1251-1300, ,45.03509867872816,35.381749337268744,3938678.319600001,5627048.748300001
Udine,1251-1300, ,46.06477241849823,13.23216147687413,1472997.4776999988,5790735.128300004
Cividale del Friuli,pre-1250, ,46.089437848198244,13.435464834073542,1495629.1039000005,5794693.300300002
Capo d'Istria,1251-1300, ,45.546661896552806,13.729869774901564,1528402.1119999997,5707996.720200002
Bolzano (Bozen),1251-1300, ,46.49512915163115,11.35419640346013,1263943.3619999997,5860052.1602
Venice,pre-1250, ,45.43464832710083,12.33859554793253,1373526.1735000014,5690209.495499998
Chioggia,1251-1300, ,45.21712019712579,12.278820165808675,1366872.0084000006,5655767.627899997
Treviso,pre-1250, ,45.666157419538585,12.242082562439705,1362782.3971000016,5727011.162299998
Padua,pre-1250, ,45.40430183563685,11.878251124554184,1322280.866700001,5685396.697099999
Trento,pre-1250, ,46.07035668535652,11.121567267129528,1238047.2049999982,5791631.105700001
Vicenza,1251-1300, ,45.54670050598616,11.545764636911743,1285268.6402000003,5708002.857299998
Verona,pre-1250, ,45.44210562056599,10.995262448451284,1223987.0168999992,5691392.580200002
Mantua,pre-1250, ,45.160376721283015,10.79770616030011,1201995.1515000015,5646804.953699999
Ferrara,pre-1250, ,44.83789400015888,11.62044000005579,1293581.4635999985,5596037.214400001
Modena,pre-1250, ,44.647546707219966,10.92691765953981,1216378.9098000005,5566204.546700001
Imola,pre-1250, ,44.35421845467071,11.712631414397247,1303844.1649000011,5520422.941399999
Ravenna,1251-1300, ,44.417760771495,12.19782243993205,1357855.3828000017,5530320.879299998
Bologna,pre-1250, ,44.494256796763224,11.351326109159274,1263623.8423000015,5542250.886200003
Faenza,pre-1250, ,44.28618099931883,11.883516001314073,1322866.950100001,5509836.689900003
Forli,pre-1250, ,44.221311211563865,12.042485646017742,1340563.370000001,5499754.722499996
Rimini,pre-1250, ,44.05860633899815,12.578342358754373,1400214.6664000005,5474516.133100003
Cesena,1251-1300, ,44.138354329529314,12.242169292085439,1362792.0518000014,5486877.857799999
Urbino,1251-1300, ,43.724696398816,12.63694851526398,1406738.6739000008,5422936.692199998
Pesaro,1251-1300, ,43.91180555499433,12.915657101504438,1437764.3718000017,5451804.018299997
Fano,1251-1300, ,43.84394134023285,13.01819932855431,1449179.3203000017,5441323.422200002
Ancona,pre-1250, ,43.62034556486492,13.514452670231789,1504421.989599999,5406876.534900002
Jesi,pre-1250, ,43.524467170959745,13.249381103790679,1474914.3577999994,5392144.885399997
Osimo,1251-1300, ,43.48615162577439,13.483934638970688,1501024.7379,5386264.277400002
Recanati,1251-1300, ,43.40335383228994,13.561848780853584,1509698.1004999988,5373569.331299998
Fermo,pre-1250, ,43.16563000081127,13.724221999336663,1527773.4045000002,5337216.498499997
Fabriano,1251-1300, ,43.33623468977553,12.905638654671314,1436649.123399999,5363291.0375000015
Camerino,1251-1300, ,43.14057022313338,13.067169723236766,1454630.6796999983,5333392.602799997
Ascoli Piceno,1251-1300, ,42.854900997476335,13.58077425369744,1511804.874499999,5289912.312799998
Spoleto,pre-1250, ,42.74559115695453,12.74034628251908,1418248.8607,5273328.049599998
Foligno,1251-1300, ,42.95660921651845,12.703724061460132,1414172.0936999992,5305369.6576000005
Todi,pre-1250, ,42.78041741908138,12.40876715080578,1381337.6405999996,5278608.638899997
Orvieto,pre-1250, ,42.71863603498075,12.112827285601254,1348393.7655000016,5269242.971199997
Viterbo,pre-1250, ,42.42210622108229,12.108542087235694,1347916.7393999994,5224420.130999997
Narni Scalo,1251-1300, ,42.5316015823347,12.517485679014602,1393440.1317999996,5240946.426899999
Rieti,1251-1300, ,42.40307961095935,12.861116631935856,1431692.954500001,5221551.362000003
Penne,1251-1300, ,42.4575852904079,13.926756950218442,1550319.4921000004,5229771.873300001
Chieti,pre-1250, ,42.35246108428216,14.169393710479566,1577329.6926999986,5213923.501999997
Tivoli,1251-1300, ,41.96366908828155,12.798585030772422,1424731.9684999995,5155538.802299999
Rome,pre-1250, ,41.89703011573962,12.485213400598681,1389847.5982000008,5145567.512699999
Anagni,pre-1250, ,41.74307783232729,13.158287968817305,1464773.9164000005,5122571.106200002
Fondi,1251-1300, ,41.35575322149942,13.431957031466672,1495238.6171000004,5064957.6457
Gaeta,pre-1250, ,41.21531205391014,13.569784344461578,1510581.4833999984,5044152.203599997
Sessa Aurunca,1251-1300, ,41.24194854856521,13.933891307322847,1551113.6851000004,5048094.787799999
Capua,1251-1300, ,41.10184028623298,14.218974011832653,1582848.9466000013,5027374.7075999975
Aversa,1251-1300, ,40.97339668968256,14.207689413861093,1581592.7509000003,5008418.473200001
Somma Vesuviana,1251-1300, ,40.87169535485825,14.438352444360246,1607270.0419999994,4993435.1382
Naples,pre-1250, ,40.83999709226436,14.252871458480223,1586622.393100001,4988769.8401999995
Salerno,1251-1300, ,40.68097856062578,14.766784747988865,1643830.9587999992,4965399.344999999
Avigliano,1251-1300, ,40.73072896006176,15.719993014967498,1749941.6176999994,4972705.011100002
Benevent,pre-1250, ,41.13029464432382,14.78164061544043,1645484.7063999996,5031579.131499998
Barletta,1251-1300, ,41.31845759072512,16.281343541768283,1812430.8724999987,5059428.172200002
Trani,pre-1250, ,41.27554924222884,16.417494759241492,1827587.1567000002,5053070.4663999975
Bari,1251-1300, ,41.12730659339785,16.870929762764266,1878063.3104000017,5031137.530599996
Monopoli,1251-1300, ,40.95184298275184,17.298886592790286,1925703.2468000017,5005241.1076000035
Gubbio,1251-1300, ,43.35533151355412,12.57374331867297,1399702.7036000006,5366214.2733
Perugia,pre-1250, ,43.11060129754456,12.388989784018444,1379136.0342000015,5328821.672799997
Cortona,1251-1300, ,43.27492451963651,11.986214174100633,1334299.2584000006,5353912.2250000015
Siena,pre-1250, ,43.318892206345375,11.331049543178631,1261366.6653000005,5360637.142800003
Arezzo,pre-1250, ,43.469323010634135,11.865880206485967,1320903.7424000017,5383682.627700001
Citta di Castello,1251-1300, ,43.460819998626505,12.243769998293562,1362970.2415999994,5382378.468199998
Florence,pre-1250, ,43.76877530230303,11.256920131148494,1253114.6169000007,5429729.076800004
Prato,1251-1300, ,43.87749643062709,11.099417316726182,1235581.4838000014,5446504.003799997
Pistoia,1251-1300, ,43.9320586429188,10.91884204408744,1215479.9364,5454934.114699997
Pisa,pre-1250, ,43.718052597779774,10.397990153849513,1157498.9692000002,5421913.342299998
Lucca,pre-1250, ,43.843822325738145,10.505538576993429,1169471.2049000002,5441305.052699998
Parma,pre-1250, ,44.79956873888222,10.326761006613062,1149569.7767999992,5590022.684299998
Cremona,pre-1250, ,45.13314508432316,10.026452739284748,1116139.613400001,5642506.8662
Lodi,pre-1250, ,45.312735359406176,9.498270182205045,1057342.6000999995,5670890.370499998
Crema,1251-1300, ,45.36236502799534,9.69254920599399,1078969.642099999,5678749.9868
Milan,pre-1250, ,45.46366931965248,9.188134378007794,1022818.440299999,5694814.498099998
Monza,1251-1300, ,45.58264881373165,9.272055693434472,1032160.5183999985,5713718.792599998
Pavia,pre-1250, ,45.18587700056933,9.156631999807818,1019311.6116000004,5650831.636399999
Plaisance,pre-1250, ,45.05355854625865,9.694274960384636,1079161.7522,5629957.127700001
Alessandria,1251-1300, ,44.91374627863088,8.616337558363666,959166.3095000014,5607952.808600001
Tortona,1251-1300, ,44.89718444990588,8.865284955647954,986879.0069999993,5605349.7788999975
Genoa,pre-1250, ,44.40763130599711,8.933909531142875,994518.2597999983,5528742.300099999
Albenga,1251-1300, ,44.05044593833982,8.215723183628354,914570.1213000007,5473252.130099997
Cherasco,1251-1300, ,44.651084386588366,7.8585924357539305,874814.5082999989,5566758.104199998
Alba,1251-1300, ,44.70047818809857,8.034573881234857,894404.6732000001,5574490.516800001
Asti,pre-1250, ,44.899361045112414,8.204102276177341,913276.4877999984,5605691.832500003
Chieri,1251-1300, ,45.01370027358681,7.822194994738661,870762.7637000009,5623678.571800001
Turin,1251-1300, ,45.069217185249286,7.686447211557885,855651.3896000013,5632424.9054000005
Vercelli,pre-1250, ,45.32111890986027,8.421801620895037,937510.6680000015,5672217.550399996
Ivrea,1251-1300, ,45.46873767392719,7.878654268449061,877047.7813000008,5695618.979199998
Novara,1251-1300, ,45.449392439984955,8.620739803617468,959656.3652000017,5692548.7705999985
Barlassina,1251-1300, ,45.65656099976672,9.129883000339895,1016333.9266000018,5725482.6576000005
Como,pre-1250, ,45.81171156317401,9.0855282681648,1011396.3803999983,5750227.036200002
Bergamo,pre-1250, ,45.69473600046099,9.668707000275257,1076315.5399000011,5731564.672600001
Brescia,pre-1250, ,45.53977300023974,10.222939000083553,1138012.3638999984,5706901.774300002
Toro,1251-1300, ,41.52565942065247,-5.39473787851972,-600539.4736000001,5090188.2403
Ortigueira,1251-1300, ,43.685805568742474,-7.851936833983584,-874073.6101000011,5416947.918200001
Collioure,1251-1300, ,42.52495394401987,3.0812382724331213,343001.875500001,5239942.263899997
Sanguesa,1301-1400, ,42.575234215056575,-1.282821104214296,-142802.99210000038,5247540.0352
Albi,1251-1300, ,43.927393645421745,2.1480840560442984,239123.62330000103,5454213.049099997
Genolhac,1251-1300, ,44.34988360989484,3.9489316396205068,439593.0593000017,5519748.097199999
Tarascon,1251-1300, ,43.808472930976244,4.661553194342801,518921.7278999984,5435850.6096
Auvillar,1251-1300, ,44.06888977446883,0.9003821836207611,100230.08619999886,5476109.2311
Coutances,pre-1250, ,49.04921919998106,-1.4443739335692025,-160786.97080000117,6283216.992700003
Savigliano,1251-1300, ,44.6474586710965,7.659831410687018,852688.5322000012,5566190.771700002
Saint-Maximin-la-Sainte-Baume,1251-1300, ,43.453212443458185,5.8605227418038215,652390.4074000008,5381211.8059
Guebwiller,1251-1300, ,47.90843062497793,7.212263846867254,802865.5388999991,6091634.450999998
Chur,1251-1300, ,46.84945168514409,9.530728736176622,1060955.8698000014,5917535.282899998
Bad Mergentheim,1251-1300, ,49.48891507481512,9.771083250999947,1087712.0119999982,6358230.93
Worms,pre-1250, ,49.630516121609666,8.357842094586907,930390.7261000015,6382531.933200002
Warburg,1251-1300, ,51.48966677257919,9.146630912917567,1018198.2956999987,6708371.481299996
Wesel,1251-1300, ,51.660822797321956,6.609264499478435,735739.9585999995,6739028.6822
Bad Wimpfen,1251-1300, ,49.23110159242087,9.158549352272125,1019525.0502999984,6314165.862599999
Haarlem,1251-1300, ,52.37995713802564,4.634531261538753,515913.66010000184,6869120.312799998
Eichstätt,1251-1300, ,48.89109619116673,11.185061915278126,1245115.3968999982,6256402.857900001
Cheb,1251-1300, ,50.077846808755794,12.37565751767924,1377651.893100001,6459768.467799999
Plzen,1251-1300, ,49.747540093582515,13.377435924185725,1489169.3552,6402668.486500002
Klatovy,1251-1300, ,49.39646798070519,13.293653302350716,1479842.7164000012,6342403.436499998
Pisek,1251-1300, ,49.308077090032405,14.148419138251821,1574994.8139999993,6327298.224799998
Louny,1251-1300, ,50.356849894618634,13.796648440946703,1535835.8790999986,6508306.856399998
Beroun,1251-1300, ,49.96386316624977,14.07155793596794,1566438.6640999988,6440019.928400002
Prague,pre-1250, ,50.08697151681088,14.420716265053185,1605306.7914999984,6461351.421499997
Ceske Budejovice,1251-1300, ,48.97540274798971,14.474848588665695,1611332.7741999999,6270688.785099998
Retz,1251-1300, ,48.756767743471315,15.951836144289102,1775750.2767999992,6233690.294500001
Krems an der Donau,pre-1250, ,48.40997000160101,15.603867999411984,1737014.6400999986,6175332.2707
Znojmo,1251-1300, ,48.855144191046996,16.04817555999768,1786474.7314999998,6250318.041199997
Litomerice,1251-1300, ,50.533738000728746,14.13111499962997,1573068.5260999985,6539228.135899998
Kolin,1251-1300, ,50.02782424832742,15.200418151771173,1692102.8084999993,6451095.9058
Brno,pre-1250, ,49.19300472740622,16.608916759541266,1848896.1563000008,6307673.937200002
Tabor,1251-1300, ,49.41396387558299,14.658408317104861,1631766.5496999994,6345396.549900003
Sumperk,1301-1400, ,49.964553665089426,16.977655259039306,1889943.9382999986,6440139.421700001
Nymburk,1251-1300, ,50.18584666800165,15.041633261775374,1674426.9554000013,6478523.635700002
Swidnica,1251-1300, ,50.84497451375188,16.494158924152618,1836121.3724999987,6593917.186499998
Sagone,1251-1300, ,42.11259904447127,8.70200506575199,968702.7727999985,5177861.1862
Opatowiec,1251-1300, ,50.2440059980924,20.72393000147822,2306977.335000001,6488641.1098000035
Mysliborz,1251-1300, ,52.923718999279174,14.867850000082893,1655081.4912,6968900.445500001
Wroclaw,pre-1250, ,51.11075639002423,17.028815101394105,1895639.0258999988,6640908.679099999
Legnica,1251-1300, ,51.210954277499184,16.161302730363435,1799067.9904999994,6658694.265699998
Opava,1251-1300, ,49.93910059473198,17.903192484962627,1992974.2710000016,6435735.809
Boleslawiec,1251-1300, ,51.26214904650262,15.568547410250298,1733082.7701000012,6667796.5132
Glogow,1251-1300, ,51.66349628265856,16.084550729980442,1790523.9968999997,6739508.469999999
Turnov,1251-1300, ,50.58391128794532,15.151750320456168,1686685.1303000003,6548019.874399997
Chrudim,1251-1300, ,49.95221094968869,15.794921565579438,1758282.6257999986,6438003.729000002
Hradec Kralove,pre-1250, ,50.2098073777227,15.830786691008507,1762275.1132999994,6482690.378799997
Jihlava,pre-1250, ,49.39634603348867,15.591101227934043,1735593.4496,6342382.578100003
Olomouc,pre-1250, ,49.58924412434533,17.236262810105668,1918731.9992000014,6375441.718500003
Raciborz,pre-1250, ,50.09036350555636,18.219566507598064,2028192.8660999984,6461939.940300003
Brzeg,1301-1400, ,50.86054850608827,17.46678151367802,1944393.2239000015,6596663.3398
Zabkowicki (Zabkowice),1251-1300, ,50.586437649621594,16.82580858709046,1873040.4441,6548462.810000002
Catania,1401-1500, ,37.50281199999483,15.088314999743876,1679623.5427,4509425.966700003
Palermo,1301-1400, ,38.116853509765086,13.35686810013547,1486879.7555,4595946.4717999995
Opole,1251-1300, ,50.67043487107911,17.924421496011455,1995337.4737000018,6563203.2161
Cieszyn,1251-1300, ,49.75020889540109,18.63133420769583,2074030.6367999986,6403128.278700002
Messina,pre-1250, ,38.19206097752499,15.553020418636471,1731354.3132999986,4606593.229000002
Augusta,1251-1300, ,37.24214554034857,15.220816305623815,1694373.5205999985,4472912.7129999995
Piazza Armerina,pre-1250, ,37.38344312645414,14.36988265936855,1599648.0203999989,4492689.438299999
Trapani,1251-1300, ,38.01654222714964,12.51512493878729,1393177.3354000002,4581762.9384
Cosenza,1401-1500, ,39.3036872324193,16.250105684181815,1808953.4901,4765265.990800001
Nardo,1251-1300, ,40.17555778257163,18.02965834821512,2007052.386500001,4891486.750200003
Brindisi,1301-1400, ,40.63739478405401,17.93963953633777,1997031.5381999984,4959003.704700001
Modica,1301-1400, ,36.85890806093624,14.760843818010775,1643169.6174999997,4419458.594999999
Bivona,1401-1500, ,37.61814565806373,13.440826746850428,1496225.9893000014,4525622.159100004
Noto,1301-1400, ,36.891736099491816,15.070944908610493,1677689.9129999988,4424026.920199998
Syracuse,1301-1400, ,37.06636610060448,15.284408625796623,1701452.5852999985,4448361.407399997
Lentini,1401-1500, ,37.29567708199347,14.99945179232615,1669731.3357000016,4480400.886100002
Palazzolo Acreide,1401-1500, ,37.06343691621077,14.903716835904266,1659074.1691000015,4447952.767800003
Agrigento,1301-1400, ,37.31082657013462,13.581727531503905,1511910.992899999,4482521.014899999
Caltanissetta,1401-1500, ,37.48925498732166,14.056357933812512,1564746.6075999998,4507523.813500002
Polizzi Generosa,1401-1500, ,37.81276826285106,13.999323385282382,1558397.5507000014,4553009.907700002
Termini Imerese,1401-1500, ,37.985029504156024,13.696998182748889,1524742.8630999997,4577311.199699998
Caccamo,1401-1500, ,37.9324073677325,13.664516854688264,1521127.0582000017,4569881.636399999
Castelvetrano,1401-1500, ,37.681120983571475,12.79186090641051,1423983.442400001,4534476.325599998
Taormina,1401-1500, ,37.85307962049215,15.288089086397752,1701862.2923000008,4558691.630599998
Placanica,1401-1500, ,38.41485768521034,16.450318242119113,1831241.0500999987,4638198.199299999
Savoca,1401-1500, ,37.95387663057846,15.340407644077958,1707686.3674999997,4572912.175099999
Briatico,1401-1500, ,38.725262028802085,16.032734002658973,1784755.7851999998,4682393.773400001
Belcastro,1301-1400, ,39.019613232059946,16.786668077473056,1868683.3425000012,4724481.389300004
Catanzaro,1401-1500, ,38.91332956964036,16.586592727313928,1846411.056400001,4709264.369900003
Ronda,1401-1500, ,36.74478814700729,-5.16175155586249,-574603.5548,4403592.997400001
Taverna,1401-1500, ,39.02083978056811,16.58159230289557,1845854.4116999991,4724657.132100001
Doña Mencia,1401-1500, ,37.55327433463666,-4.356247821871104,-484935.28929999843,4516509.258199997
Lisbon,pre-1250, ,38.7149688693057,-9.134436912654678,-1016840.8658000007,4680925.158500001
Batalha,1301-1400, ,39.6597243625553,-8.825193528098328,-982416.0496999994,4816616.862800002
Pedrogao Grande,1401-1500, ,39.91722750276165,-8.14546954660333,-906749.5221999995,4853921.2861
Coimbra,pre-1250, ,40.20837477526333,-8.426233938151274,-938004.0713,4896269.097999997
Aveiro,1401-1500, ,40.64200126040399,-8.656361401162867,-963621.7432999983,4959679.4782000035
San Felices de los Gallegos,1401-1500, ,40.85018900062421,-6.70651900022085,-746566.2800999992,4990269.625
Pena da Francia,1401-1500, ,40.51243453581419,-6.168175439960672,-686638.1490999982,4940689.696099997
Cisneros,1401-1500, ,42.22021383337277,-4.857005476283329,-540679.3764000013,5194023.700300001
Avila,1401-1500, ,40.654906144154445,-4.695112953495307,-522657.5832000002,4961572.882600002
Nieva,1301-1400, ,41.08043773966774,-4.42654224241002,-492760.4283999987,5024213.461599998
Chinchilla,1401-1500, ,38.918621000916,-1.722757999819984,-191776.5432999991,4710021.423799999
Luchente,1401-1500, ,38.94288900184626,-0.3566854736493157,-39706.045299999416,4713494.210600004
Sant Mateu,1301-1400, ,40.46510267256606,0.17848995947080004,19869.411400001496,4933761.715999998
Benabarre,1401-1500, ,42.10752842868828,0.48365474110892637,53840.19949999824,5177100.315099999
Castello d'Empuries,1301-1400, ,42.25917345883294,3.07429740076281,342229.2212000005,5199881.7809000015
Logrono,1401-1500, ,42.4624004533829,-2.453159992504226,-273084.52120000124,5230498.436899997
Port-Sainte-Marie,1301-1400, ,44.25000985039193,0.3984548652164719,44355.79270000011,5504213.651299998
Marciac,1301-1400, ,43.5227461383003,0.16240786291030676,18079.16059999913,5391880.663999997
Belves,1301-1400, ,44.775780456636284,1.0056543441066759,111948.92949999869,5586291.507299997
Clermont-L'Herault,1301-1400, ,43.62836635834107,3.4338539852815773,382254.8770999983,5408109.988399997
Carpentras,1301-1400, ,44.051944491363365,5.047505207721914,561885.7094999999,5473484.234999999
Buis-les-Baronnies,1301-1400, ,44.27622365417414,5.276440568622241,587370.6772999987,5508288.4111
Seyne,1401-1500, ,44.3516058069524,6.356235063219991,707572.8506000005,5520016.201099999
Coppet,1401-1500, ,46.315785983167586,6.1903181876721245,689103.068500001,5831099.364799999
Maubec,1401-1500, ,45.568421000344195,5.26600800023982,586209.3291000016,5711456.071800001
Montmelian,1301-1400, ,45.501098820032496,6.059333360162626,674521.9041999988,5700757.250399999
Montbozon,1301-1400, ,47.46668065107687,6.2591513609591765,696765.5423000008,6018583.708400004
Zofingen,1251-1300, ,47.285574556708546,7.947383459047026,884698.6798,5988812.32
Luxembourg,1251-1300, ,49.606592689985746,6.125838837750097,681925.2600999996,6378421.338600002
Vailly-sur-Aisne,1401-1500, ,49.401964590939436,3.5106246903854315,390800.9528999999,6343343.655199997
Beauvoir-sur-Mer,1251-1300, ,46.91553261426048,-2.0434134622698608,-227471.74610000104,5928297.726999998
Winchelsea,1301-1400, ,50.924041856428225,0.7089373849774177,78918.54870000109,6607868.589000002
Kings Langley,1301-1400, ,51.71407500153154,-0.4504120001151702,-50139.634500000626,6748590.744099997
Melcombe Regis,1401-1500, ,50.61387799959553,-2.455533999949969,-273348.7945000008,6553275.3345
Warwick,1251-1300, ,52.28245110708854,-1.5869456592113331,-176657.98270000145,6851358.248000003
Worcester,1301-1400, ,52.191047538986595,-2.221738777617042,-247322.82939999923,6834743.288400002
King's Lynn,1251-1300, ,52.76335852669013,0.40927473145389454,45560.25470000133,6939345.048799999
Thetford,1301-1400, ,52.362633422372795,0.2453309802747641,27310.119800001383,6865961.697700001
Jarrow,1301-1400, ,54.97835485297196,-1.483029590088417,-165090.0987999998,7357666.364100002
Dumfries,1301-1400, ,55.0689999990035,-3.607780000950806,-401616.23259999976,7375269.138300002
Kirkcudbright,1301-1400, ,54.836960598143726,-4.048682642979103,-450697.29019999877,7330287.569700003
Annan,pre-1250, ,54.9874293209785,-3.261341403134936,-363050.8643000014,7359426.782700002
Kalkar,1401-1500, ,51.73550367592818,6.295309591394093,700790.6581000015,6752441.692299999
Marienheide,1401-1500, ,51.08508969211852,7.531079664718141,838355.9534000009,6636358.928199999
Komarom,1401-1500, ,47.74326034755169,18.119008744350793,2016998.8271000013,6064248.292499997
Meldorf,1301-1400, ,54.091829820807725,9.069335298837048,1009593.7873000018,7187566.9811
Vilnius,1401-1500, ,54.68946336040409,25.279946830030283,2814150.8084000014,7301829.046800002
Stupsk,1251-1300, ,54.464148000309876,17.028482001595183,1895601.9453999996,7258555.080700003
Kalingradskaya oblast,1401-1500, ,54.329422996917536,21.55517449460872,2399511.048700001,7232793.581299998
Kamieniec-Podolsk,1301-1400, ,49.823858999992105,19.008757000421543,2116045.1499000005,6415827.019000001
Kolomyja,1401-1500, ,53.076812672352524,22.363049962409832,2489443.334399998,6997218.843900003
Zeleznodoroznyj,1401-1500, ,54.36304893604206,21.312268106811658,2372470.833299998,7239215.4624999985
Piotrkow,1301-1400, ,51.407347985763494,19.686687108277894,2191511.9842999987,6693667.649400003
Brest,1251-1300, ,52.09506915388065,23.682254281020267,2636296.487399999,6817333.464000002
Lowicz,1401-1500, ,52.11185578325397,19.92949550604711,2218541.2914999984,6820375.738399997
Hrubieszow,1401-1500, ,50.802881405093245,23.892421133502967,2659692.1543999985,6586499.516400002
Warka,1251-1300, ,51.78318286433655,21.194836710864358,2359398.4301000014,6761016.678099997
Horodlo,1401-1500, ,50.88484489780241,24.031696668178157,2675196.2360000014,6600949.3411
Margitsziget,pre-1250, ,47.527198500208115,19.048444500503667,2120463.1422000006,6028554.877999999
Volodymyr-Volosk'yi,1401-1500, ,50.85027544505904,24.31576971751256,2706819.1032,6594851.793799996
Belzec,1301-1400, ,50.38445516625842,23.438528952179315,2609165.107900001,6513124.8486
Sambir,1401-1500, ,49.516826863070825,23.203688896644483,2583022.8324999996,6363015.4673999995
Mostys'ka,1401-1500, ,49.79352040642085,23.15219439321881,2577290.490600001,6410593.704300001
Lancut,1301-1400, ,50.06852976244165,22.231386800859664,2474786.658300001,6458152.4580999985
Zmigrod,1301-1400, ,51.469059996127505,16.906766186121672,1882052.6028000005,6704688.197899997
Przemysl,1301-1400, ,49.784787546782454,22.7722768442018,2534998.2624999993,6409087.920400001
Cluj,1301-1400, ,46.77291188587694,23.582921563800642,2625238.8198999986,5905085.964599997
Gelnica,1401-1500, ,48.85181871432389,20.93401043692891,2330363.382100001,6249755.430600002
Szeged,1301-1400, ,46.25018235471222,20.14918634298616,2242997.1636000015,5820532.160999998
Debrecen,1301-1400, ,47.52983116455228,21.63956066573704,2408904.8742999993,6028988.9076000005
Oradea,pre-1250, ,47.06388495448214,21.936409663738367,2441949.9536000006,5952507.964299999
Zalakomar,1401-1500, ,46.5407199476893,17.167694320027163,1911098.9897999987,5867427.455899999
Mesztegnyo,1401-1500, ,46.505336999624994,17.42426199920422,1939659.9732000008,5861702.9624999985
Modrus,1301-1400, ,45.12867128791736,15.241124674660462,1696634.2379,5641800.943800002
Sibenik,1301-1400, ,43.73402350479001,15.895026418921745,1769426.2470999993,5424373.545199998
Trogir,1301-1400, ,43.51831127040717,16.248933503110283,1808823.0034999996,5391199.836000003
Hvar,1301-1400, ,43.17295957837517,16.443023444108338,1830428.9968999997,5338335.2223000005
Stari Grad,1401-1500, ,43.185181807547856,16.601958106618206,1848121.5225999989,5340201.017099999
Korcula,1401-1500, ,42.95799976078207,17.13473568561503,1907430.0513999984,5305581.1657000035
Budva,1401-1500, ,42.27979309226964,18.829978626947305,2096143.6323999986,5202983.672600001
Lopud,1401-1500, ,42.68893217270903,17.943741596064665,1997488.1774000004,5264743.372900002
Shkoder,1301-1400, ,42.06992602638332,19.50871248443786,2171699.9398000017,5171459.785700001
Wronki,1251-1300, ,52.708162115813714,16.37891942468508,1823292.9701000005,6929197.203000002
Bol,1401-1500, ,43.26271955495674,16.643953256494346,1852796.4012999982,5352046.320699997
Uhersky Brod,1251-1300, ,49.02551990016131,17.646776441405517,1964430.1675999984,6279192.696999997
Banská Štiavnica,1251-1300, ,48.45865300076022,18.89303500144184,2103163.0359000005,6183500.386299998
Leutenberg,1301-1400, ,50.5647075733956,11.454389000646124,1275096.7509000003,6544653.750299998
Cammin,pre-1250, ,53.99023639978644,12.361699390590019,1376098.0815000013,7168307.401799999
Tangermunde,1401-1500, ,52.54102699692515,11.966933003438571,1332152.8883000016,6898547.516599998
Znin,1301-1400, ,52.849088318100854,17.73088684321637,1973793.2947000004,6955131.9833
Sroda,1401-1500, ,52.229079998024396,17.276069997224667,1923163.3150000013,6841652.514300004
Koscian,1401-1500, ,52.08161199725473,16.638547000180107,1852194.579599999,6814895.423199996
Lewin Brzeski,1251-1300, ,50.75095855365305,17.620776149997678,1961535.828400001,6577358.8433
Bochnia,1301-1400, ,49.96845956929292,20.430322410686248,2274293.0874999985,6440815.3847
Krosno Odrza¨½skie,1251-1300, ,52.055033929616606,15.097230672039242,1680616.0307999998,6810082.418099999
Oswiecim,1251-1300, ,50.03222986598558,19.20173003728076,2137526.8101000004,6451859.358099997
Mondovi,1301-1400, ,44.39257908098959,7.819431465209303,870455.1290000007,5526397.061300002
Bonifacio,1401-1500, ,41.387501511296435,9.16168559371118,1019874.1750999987,5069667.163900003
Garessio,1401-1500, ,44.203160553115985,8.019147847682559,892687.4549999982,5496935.7632
Saluzzo,1301-1400, ,44.64458848735334,7.492608351478361,834073.3464000002,5565741.685900003
Taggia,1401-1500, ,43.8553331070017,7.852882224581831,874178.8504999988,5443081.873999998
Finale Marina,1301-1400, ,44.16597347756264,8.337484968589898,928124.5811999999,5491162.989600003
Savona,1401-1500, ,44.30942716729137,8.477305269501127,943689.3059,5513452.284599997
Varazze,1401-1500, ,44.36085382333779,8.575683877074336,954640.7624000013,5521456.0254999995
Biella,1401-1500, ,45.56583514777255,8.067389542481319,898057.6959000006,5711044.892200001
Rivoli,1251-1300, ,45.07034095752699,7.518457990023177,836950.9149999991,5632602.036200002
Basella,1401-1500, ,45.61531520922017,9.731572629197279,1083313.7096999995,5718916.064599998
Morbegno,1401-1500, ,46.13282520759294,9.571286042608982,1065470.6884999983,5801660.161799997
Forres,1301-1400, ,57.60860075038636,-3.6119418004407127,-402079.5219999999,7885542.321800001
Dundee,1301-1400, ,56.46143344133637,-2.9681139084043,-330408.9288999997,7650827.803199999
Dysart in Fife,1301-1400, ,56.12735323922633,-3.123200502647363,-347673.08960000053,7583809.969300002
Coleraine,pre-1250, ,55.132094813796364,-6.659988499918615,-741386.5284999982,7387545.344400004
Rathfran,1251-1300, ,54.2485803402167,-9.226285748174307,-1027065.431400001,7217375.709200002
Newtownards,pre-1250, ,54.595015999748,-5.703108999833507,-634867.1898000017,7283660.393200003
Dundalk,1301-1400, ,53.999976684898215,-6.4037352230061915,-712860.5441999994,7170151.878399998
Tulsk,1401-1500, ,53.78234948268727,-8.247528178196411,-918110.6370999999,7129043.178900003
Ballindoon,1401-1500, ,54.08635043612098,-8.324652540146133,-926696.0817999989,7186527.024300002
Toombeola,1401-1500, ,53.43982199854137,-9.872246997076662,-1098973.5086999983,7064771.1076000035
Galway,1401-1500, ,53.27538349235801,-9.04709443623195,-1007117.9457999989,7034099.753799997
Cashel,pre-1250, ,52.51683999996122,-7.891171000155874,-878441.1374999993,6894121.714299999
Castlelyons,1301-1400, ,52.089769957038925,-8.2350738299945,-916724.2254000008,6816373.317699999
Aghaboe,1301-1400, ,52.91576287058834,-7.517746358129831,-836871.6964999996,6967431.506200001
Portumna,1401-1500, ,53.089149689216924,-8.215412998055694,-914535.5916000009,6999505.254900001
Newbridge,1301-1400, ,53.18047298327293,-6.795925256295833,-756518.9389999993,7016450.557700001
Lorrha,1251-1300, ,53.09375524740765,-8.12231465628151,-904171.9316000007,7000358.9679000005
New Ross,1251-1300, ,52.39507585826796,-6.9440267682818675,-773005.5238999985,6871877.906199999
Longford,1301-1400, ,53.72582087057202,-7.7987329623363495,-868150.9822000004,7118400.109700002
Rojas,1401-1500, ,42.577694000180905,-3.4409000002643264,-383039.23589999974,5247911.886500001
Pietravairano,1401-1500, ,41.327215999944215,14.16980600036405,1577375.5885999985,5060726.414999999
Maddaloni,1301-1400, ,41.03678253054638,14.381453270146809,1600936.0549000017,5017768.593500003
Arienzo,1401-1500, ,41.02207718930417,14.493434132717832,1613401.7074999996,5015598.5898
Airola,1401-1500, ,41.058921533027174,14.55452882917698,1620202.7380000018,5021036.465000004
Castelmare,1401-1500, ,40.69563962312106,14.482747666300115,1612212.0954999998,4967551.701899998
Murano,1401-1500, ,45.45744013148874,12.354898696528213,1375341.0317000002,5693825.861199997
Angri,1401-1500, ,40.73447399973537,14.571741000076658,1622118.7881000005,4973255.177599996
Feltre,1401-1500, ,46.02169488600604,11.909126609839884,1325717.9100000001,5783826.5227999985
Reggio Emilia,pre-1250, ,44.6991806928228,10.630315185303608,1183361.2734000012,5574287.314499997
Calvisano,1401-1500, ,45.34924099970623,10.346110999904019,1151723.8082000017,5676670.926299997
Cingoli,1301-1400, ,43.37447452062281,13.202775133326497,1469726.2049000002,5369145.501999997
Lugo,1401-1500, ,44.42862332068492,11.907474331351294,1325533.9792000018,5532014.006399997
Meldola,1301-1400, ,44.12895085683085,12.0618931934706,1342723.8082999997,5485419.359300002
Modigliana,1301-1400, ,44.15899171166219,11.793836366338569,1312883.8588000014,5490079.573899999
San Severino Marche,pre-1250, ,43.230155740095405,13.180803789561153,1467280.3660999984,5347069.769500002
Monselice,1301-1400, ,45.23952900019706,11.750399999844744,1308048.5445999987,5659309.578199998
Casale Monferrato,1401-1500, ,45.13152566383874,8.44964770497167,940610.4798999988,5642251.330700003
Trino,1401-1500, ,45.19294772644386,8.297706898564213,923696.5067000017,5651948.475699998
Valenza,1401-1500, ,45.01227759574952,8.644166627450508,962264.2272999994,5623454.549500003
Vigevano,1401-1500, ,45.31513816464502,8.857270513669825,985986.8434000015,5671270.732799999
Acquaviva delle Fonti,1401-1500, ,40.8989284978058,16.843458629198963,1875005.2377999984,4997445.051299997
L'Aquila,1301-1400, ,42.35220922285127,13.39983188811111,1491662.4624999985,5213885.563600004
Bagnoli Irpino,1401-1500, ,40.83032571974928,15.071355369525083,1677735.6053000018,4987346.867799997
Castellaneta,1401-1500, ,40.62850839530807,16.93587355246794,1885292.8200000003,4957700.196599998
Galatina,1401-1500, ,40.17415313744557,18.169332511195897,2022600.8431999981,4891282.105999999
Sulmona,1401-1500, ,42.04643744393307,13.933302937761196,1551048.188099999,5167938.088100001
Cagli,1301-1400, ,43.54679217375795,12.656005634416076,1408860.1026999988,5395573.012999997
Fiesole,1401-1500, ,43.80604091120988,11.294134608779302,1257257.3136,5435475.465499997
Cupar,1301-1400, ,56.31963507606236,-3.0137449759181925,-335488.5560999997,7622310.887400001
Foiano della Chiana,1301-1400, ,43.25084285801783,11.81898078606285,1315682.9228000008,5350230.961300001
Sarzana,1301-1400, ,44.11186234209064,9.961129147268819,1108867.8244000003,5482769.488799997
Legnago,1401-1500, ,45.19070001648121,11.307614214994771,1258757.8564999998,5651593.429099999
Soave,1401-1500, ,45.422070504811806,11.248239495860702,1252148.2930000015,5688214.403300002
Argenta,1301-1400, ,44.6144357407899,11.836315525794827,1317612.6171999983,5561025.1523
Senigallia,1401-1500, ,43.71501399993857,13.21802400024014,1471423.7010000013,5421445.342500001
Bibbiena,1401-1500, ,43.697497928629254,11.814567767313859,1315191.6678000018,5418748.0088
San Miniato,1251-1300, ,43.67936299980478,10.851329999732553,1207964.5300000012,5415956.206100002
San Gimignano,1301-1400, ,43.468820171820695,11.041151547149083,1229095.3680000007,5383605.4991
Teramo,1251-1300, ,42.661279659556335,13.698505038366052,1524910.6055000015,5260556.450499997
Ripatransone,pre-1250, ,42.99652433792802,13.761040177095055,1531871.9853000008,5311442.830700003
Civitavecchia,1401-1500, ,42.093860308482526,11.800685993430502,1313646.355799999,5175049.648800001
Magliano dei Marsi,1301-1400, ,42.09205401699755,13.366702105772742,1487974.4719999991,5174778.678900003
Montepulciano,1401-1500, ,43.09683899084897,11.785782863815214,1311987.3469999991,5326723.363799997
Bevagna,1301-1400, ,42.93486999985671,12.609389000051149,1403670.762699999,5302063.645199999
Ortona,1301-1400, ,42.35615906455615,14.403681432370378,1603410.4825999998,5214480.553800002
Caramanico,1301-1400, ,42.38136649705039,14.308548885279718,1592820.3759000003,5218278.593599997
Pianella,1401-1500, ,42.39812603806654,14.047599309486708,1563771.6020000018,5220804.6215
Castel di Sangro,1301-1400, ,41.786416497463186,14.106824327971944,1570364.5009000003,5129039.170599997
Pontecorvo,1301-1400, ,41.45691515196159,13.666700751670406,1521370.1684999987,5079971.950300001
Cercemaggiore,1401-1500, ,41.462405833395245,14.723959759606082,1639063.7029,5080787.538599998
Terracina,1301-1400, ,41.288007192122905,13.24821885089967,1474784.976399999,5054915.923
La Quercia,1401-1500, ,42.43026393027306,12.128971198829678,1350190.8977000006,5225650.389899999
Orsara,1401-1500, ,41.28309854356979,15.264415486372974,1699226.9591999985,5054188.739
Andria,1301-1400, ,41.231688000127136,16.291729999627194,1813587.0876999982,5046575.888899997
Bitonto,1301-1400, ,41.10909252102891,16.689861190168724,1857906.8491000012,5028446.126800001
Gioia del Colle,1401-1500, ,40.79952636918156,16.923801555098713,1883948.9714000002,4982816.667300001
Modugno,1401-1500, ,41.08331490774348,16.78015518206871,1867958.3302999996,5024638.3715
Martina Franca,1301-1400, ,40.70323992316687,17.336367942824,1929875.6515999995,4968667.670900002
Altomonte,1401-1500, ,39.69930199995353,16.131273999759486,1795725.2074999996,4822341.398800001
Matera,1301-1400, ,40.66865299980263,16.606086999920937,1848581.1488999985,4963590.223999999
Venosa,1301-1400, ,40.96156685811158,15.817913391914267,1760842.064199999,5006674.435900003
Atella,1401-1500, ,40.87808445409112,15.653530245983598,1742543.0161000006,4994375.745700002
Ferrandina,1401-1500, ,40.50245527367434,16.454169986292072,1831669.8242999986,4939228.621699996
Ottati,1401-1500, ,40.46259609634715,15.31696952842177,1705077.248399999,4933394.963799998
Montemurro,1401-1500, ,40.297287603086055,15.991914830134732,1780211.8156999983,4909237.816699997
Taranto,1301-1400, ,40.46605841081849,17.252059701444885,1920490.5011,4933901.5594
Matino,1401-1500, ,40.03356466287256,18.13213349357114,2018459.8674999997,4870821.004299998
Parabita,1401-1500, ,40.050502779711316,18.125587462909255,2017731.1667000018,4873283.9221
Galatone,1401-1500, ,40.14390700013111,18.07125900023929,2011683.3498999998,4886876.542099997
Lecce,1401-1500, ,40.35317962842331,18.17396025873885,2023116.001699999,4917398.8972999975
Otranto,1401-1500, ,40.150642879141564,18.482323389538188,2057442.828400001,4887857.500699997
Campagna,1401-1500, ,40.66548232764408,15.105997384795877,1681591.9367999993,4963124.893200003
Bisignano,1401-1500, ,39.512603000304416,16.28718500039668,1813081.1407000013,4795365.813299999
Squillace,1401-1500, ,38.78171755445648,16.519098293531837,1838897.6103999987,4690452.541500002
Hamar,1301-1400, ,60.79823274593174,11.09286897110578,1234852.5252999999,8579640.888400003
Stockholm,1301-1400, ,59.33090327716902,18.075970739362987,2012207.8583000004,8252254.124600001
Brasov,1301-1400, ,45.7921400712415,25.34605760405158,2821510.2261000015,5747101.859899998
Santa Severina,1401-1500, ,39.148375483235746,16.915402441939495,1883013.9864000008,4742947.427299999
Sighisoara,1251-1300, ,46.23738100000555,24.85416000004897,2766752.4353,5818471.637699999
Labatlan,1401-1500, ,47.74688337263525,18.49694833785944,2059070.8702000007,6064848.076899998
Székelyvásárhely,1301-1400, ,46.302791604163936,25.289475046449887,2815211.4846,5829005.270199999
Podkamien,1401-1500, ,50.43689532511278,17.346005489603584,1930948.498399999,6522285.043099999
Smotrych (Smotric),1301-1400, ,48.95094586265842,26.574903378724,2958304.712000001,6266542.028399996
Rabat,1401-1500, ,35.88160302997018,14.401593797057437,1603178.0881000012,4284342.337099999
Fanjeaux,1301-1400, ,43.187340064785424,2.0335342803569256,226372.00059999898,5340530.526500002
Prouilhe,pre-1250, ,43.49758136419567,2.6942145868863565,299918.59589999914,5388018.104599997
Burrishoole,1401-1500, ,53.90235149142102,-9.570886942687814,-1065426.2608999982,7151684.483099997
Sabes,1301-1400, ,45.97534240528632,23.5582282798087,2622489.9761000015,5776398.703500003
Kotor,1251-1300, ,42.42499453058155,18.771361493024934,2089618.4028999992,5224855.696800001
Gabel,1251-1300, ,50.76523754362225,14.760394903812163,1643119.6446000002,6579871.553199999
Ungarisch-Brod,1251-1300, ,49.02456888896146,17.64646393548449,1964395.3795999996,6279031.2491
Halitsch,1251-1300, ,49.12423008201927,24.728340047045315,2752746.222199999,6295966.988600001
Coborszentmihaly,1401-1500, ,45.76854952755429,19.1164195715903,2128030.092500001,5743336.379600003
Cherwonogrod,1401-1500, ,48.80539264785207,25.600584000984327,2849843.9750000015,6241904.877899997
Luck,1301-1400, ,50.75000210835911,25.335863565326513,2820375.4309,6577190.562600002
Siret,1301-1400, ,47.947382198375124,26.06825065063402,2901904.3883000016,6098105.567400001
Trembowta,1401-1500, ,49.299282967529685,25.690111246653345,2859810.102400001,6325796.871100001
Gillingham,1251-1300, ,51.03882481203484,-2.2781173915980966,-253598.86800000072,6628164.258000001
"Sandomierz, S. Jacob",pre-1250, ,50.6770084780566,21.74481350435952,2420621.5667000003,6564357.909699999
Neukloster,1401-1500, ,46.14983521728933,15.562575219798614,1732417.9488999993,5804393.0167
Vogh,1401-1500, ,44.99250247725633,9.009086001501895,1002886.8662,5620341.231899999
Piperno,1301-1400, ,41.473430781881724,13.181725418821845,1467382.9613999985,5082425.398000002
Mauvoisin,1301-1400, ,43.73143838132626,0.8757561969183039,97488.73389999941,5423975.281099997
San Pedro de las Dueñas,1401-1500, ,40.85623728900096,-4.3167596902899,-480539.49060000107,4991159.7667
San Paulus Porta Coeli,1401-1500, ,37.40488655536693,-5.890189569027548,-655692.9034999982,4495694.022699997
San Paulus Scala Coeli,1401-1500, ,37.88532519889133,-4.77602315831042,-531664.4659999982,4563238.7513
Valencia de San Juan,1401-1500, ,42.28972113819653,-5.524369880042236,-614970.0419999994,5204477.549199998
Marca,1251-1300, ,45.76665839454399,16.482582349459232,1834832.6741000004,5743034.589299999
Clonymican,1401-1500, ,54.15499100018728,-8.493247001603516,-945463.931400001,7199564.551299997
Koroszeg,1401-1500, ,47.027726270426186,21.69632409193466,2415223.75,5946600.8803
Ujvar,1401-1500, ,45.69025468630227,20.913059385290236,2328031.1217,5730850.497699998
Urlar,1401-1500, ,53.851234349370635,-8.766757929321834,-975911.0285999998,7142032.053000003
Seehausen,1251-1300, ,52.89059668686882,11.754417598171978,1308495.7815999985,6962786.8521
San Giorgio,1401-1500, ,38.386211960229204,16.11004275999046,1793361.7567000017,4634129.196099997
Clonshanville Abbey,1301-1400, ,53.97520347197235,-8.295387460178688,-923438.3079999983,7165461.5264
Krossen,1251-1300, ,52.054928549042074,15.098331285230415,1680738.5505000018,6810063.340499997
Strad,1251-1300, ,55.27386607796249,-7.427814623546255,-826860.5416000001,7415200.3851
Bemfica,1301-1400, ,39.14089789303165,-8.686840584779521,-967014.6704999991,4741874.129199997
La Tarce,1401-1500, ,41.736259075303664,-5.329302539675722,-593255.245000001,5121553.8407000005
Palacios,1401-1500, ,42.326576119416465,-5.941884935750779,-661447.6053999998,5210025.191799998
S. Maria Magdalena,1301-1400, ,50.557000809932475,21.66323792639659,2411540.6149000004,6543303.255599998
S. Anna,1251-1300,"Georeferenced Add, GHW only: 1250-1303",40.604728146275164,8.95100215334626,996421.0018000007,4954212.821800001
Castania,1401-1500,Georeferenced Add,38.1061003539414,15.010092764464595,1670915.883299999,4594425.096000001
Azeitao,1401-1500,Georeferenced Add,38.96135263857186,-8.76260669222303,-975448.9149999991,4716137.180600002
Vallis Cellinensis,1401-1500,Georeferenced Add,46.37120867894641,12.92299106875655,1438580.7853000015,5840036.535499997
Gibello,1401-1500,Georeferenced Add,45.508369638391095,12.083375439598033,1345115.2010000013,5701912.110100001
Vintul-de-Jos,1251-1300,Georeferenced Add,46.55163671832135,23.664711872354154,2634343.6754,5869194.398100004
Kecskés,1251-1300,Georeferenced Add,48.37437674701197,18.84115426735975,2097387.699000001,6169365.321900003
